[
  {
    "address": "Blessington Street",
    "available_bike_stands": 9,
    "available_bikes": 11,
    "banking": "True",
    "bike_stands": 20,
    "id": 2,
    "last_update": "2019-05-31T05:54:14Z",
    "latitude": 53.35677,
    "longitude": -6.26814,
    "name": "BLESSINGTON STREET",
    "status": "open",
    "time": "2019-05-31T06:05:02Z"
  },
  {
    "address": "Bolton Street",
    "available_bike_stands": 14,
    "available_bikes": 6,
    "banking": "False",
    "bike_stands": 20,
    "id": 3,
    "last_update": "2019-05-31T06:02:56Z",
    "latitude": 53.351181,
    "longitude": -6.269859,
    "name": "BOLTON STREET",
    "status": "open",
    "time": "2019-05-31T06:05:02Z"
  },
  {
    "address": "Greek Street",
    "available_bike_stands": 5,
    "available_bikes": 15,
    "banking": "False",
    "bike_stands": 20,
    "id": 4,
    "last_update": "2019-05-31T05:59:06Z",
    "latitude": 53.346874,
    "longitude": -6.272976,
    "name": "GREEK STREET",
    "status": "open",
    "time": "2019-05-31T06:05:02Z"
  },
  {
    "address": "Charlemont Street",
    "available_bike_stands": 23,
    "available_bikes": 17,
    "banking": "False",
    "bike_stands": 40,
    "id": 5,
    "last_update": "2019-05-31T06:03:50Z",
    "latitude": 53.330662,
    "longitude": -6.260177,
    "name": "CHARLEMONT PLACE",
    "status": "open",
    "time": "2019-05-31T06:05:02Z"
  },
  {
    "address": "Christchurch Place",
    "available_bike_stands": 15,
    "available_bikes": 5,
    "banking": "False",
    "bike_stands": 20,
    "id": 6,
    "last_update": "2019-05-31T05:57:19Z",
    "latitude": 53.343369,
    "longitude": -6.27012,
    "name": "CHRISTCHURCH PLACE",
    "status": "open",
    "time": "2019-05-31T06:05:02Z"
  },
  {
    "address": "High Street",
    "available_bike_stands": 21,
    "available_bikes": 8,
    "banking": "True",
    "bike_stands": 29,
    "id": 7,
    "last_update": "2019-05-31T06:02:08Z",
    "latitude": 53.343567,
    "longitude": -6.275071,
    "name": "HIGH STREET",
    "status": "open",
    "time": "2019-05-31T06:05:02Z"
  },
  {
    "address": "Custom House Quay",
    "available_bike_stands": 22,
    "available_bikes": 8,
    "banking": "False",
    "bike_stands": 30,
    "id": 8,
    "last_update": "2019-05-31T06:03:36Z",
    "latitude": 53.347885,
    "longitude": -6.248048,
    "name": "CUSTOM HOUSE QUAY",
    "status": "open",
    "time": "2019-05-31T06:05:02Z"
  },
  {
    "address": "Exchequer Street",
    "available_bike_stands": 21,
    "available_bikes": 3,
    "banking": "False",
    "bike_stands": 24,
    "id": 9,
    "last_update": "2019-05-31T06:02:56Z",
    "latitude": 53.343033,
    "longitude": -6.263578,
    "name": "EXCHEQUER STREET",
    "status": "open",
    "time": "2019-05-31T06:05:02Z"
  },
  {
    "address": "Dame Street",
    "available_bike_stands": 13,
    "available_bikes": 3,
    "banking": "True",
    "bike_stands": 16,
    "id": 10,
    "last_update": "2019-05-31T06:03:55Z",
    "latitude": 53.344006,
    "longitude": -6.266802,
    "name": "DAME STREET",
    "status": "open",
    "time": "2019-05-31T06:05:02Z"
  },
  {
    "address": "Earlsfort Terrace",
    "available_bike_stands": 23,
    "available_bikes": 7,
    "banking": "False",
    "bike_stands": 30,
    "id": 11,
    "last_update": "2019-05-31T05:54:28Z",
    "latitude": 53.334019,
    "longitude": -6.258371,
    "name": "EARLSFORT TERRACE",
    "status": "open",
    "time": "2019-05-31T06:05:02Z"
  },
  {
    "address": "Eccles Street",
    "available_bike_stands": 4,
    "available_bikes": 16,
    "banking": "False",
    "bike_stands": 20,
    "id": 12,
    "last_update": "2019-05-31T06:03:09Z",
    "latitude": 53.359245,
    "longitude": -6.269779,
    "name": "ECCLES STREET",
    "status": "open",
    "time": "2019-05-31T06:05:02Z"
  },
  {
    "address": "Fitzwilliam Square West",
    "available_bike_stands": 29,
    "available_bikes": 1,
    "banking": "False",
    "bike_stands": 30,
    "id": 13,
    "last_update": "2019-05-31T06:01:06Z",
    "latitude": 53.336075,
    "longitude": -6.252825,
    "name": "FITZWILLIAM SQUARE WEST",
    "status": "open",
    "time": "2019-05-31T06:05:02Z"
  },
  {
    "address": "Fownes Street Upper",
    "available_bike_stands": 23,
    "available_bikes": 7,
    "banking": "False",
    "bike_stands": 30,
    "id": 14,
    "last_update": "2019-05-31T06:02:29Z",
    "latitude": 53.344604,
    "longitude": -6.263371,
    "name": "FOWNES STREET UPPER",
    "status": "open",
    "time": "2019-05-31T06:05:02Z"
  },
  {
    "address": "Hardwicke Street",
    "available_bike_stands": 16,
    "available_bikes": 0,
    "banking": "False",
    "bike_stands": 16,
    "id": 15,
    "last_update": "2019-05-31T05:54:37Z",
    "latitude": 53.355473,
    "longitude": -6.264423,
    "name": "HARDWICKE STREET",
    "status": "open",
    "time": "2019-05-31T06:05:02Z"
  },
  {
    "address": "Georges Quay",
    "available_bike_stands": 19,
    "available_bikes": 1,
    "banking": "False",
    "bike_stands": 20,
    "id": 16,
    "last_update": "2019-05-31T05:58:40Z",
    "latitude": 53.347507,
    "longitude": -6.252192,
    "name": "GEORGES QUAY",
    "status": "open",
    "time": "2019-05-31T06:05:02Z"
  },
  {
    "address": "Golden Lane",
    "available_bike_stands": 19,
    "available_bikes": 1,
    "banking": "False",
    "bike_stands": 20,
    "id": 17,
    "last_update": "2019-05-31T06:03:59Z",
    "latitude": 53.340801,
    "longitude": -6.267732,
    "name": "GOLDEN LANE",
    "status": "open",
    "time": "2019-05-31T06:05:02Z"
  },
  {
    "address": "Grantham Street",
    "available_bike_stands": 4,
    "available_bikes": 26,
    "banking": "True",
    "bike_stands": 30,
    "id": 18,
    "last_update": "2019-05-31T06:03:51Z",
    "latitude": 53.334122,
    "longitude": -6.265436,
    "name": "GRANTHAM STREET",
    "status": "open",
    "time": "2019-05-31T06:05:02Z"
  },
  {
    "address": "Herbert Place",
    "available_bike_stands": 23,
    "available_bikes": 7,
    "banking": "False",
    "bike_stands": 30,
    "id": 19,
    "last_update": "2019-05-31T06:03:59Z",
    "latitude": 53.334431,
    "longitude": -6.245575,
    "name": "HERBERT PLACE",
    "status": "open",
    "time": "2019-05-31T06:05:02Z"
  },
  {
    "address": "Leinster Street South",
    "available_bike_stands": 25,
    "available_bikes": 5,
    "banking": "False",
    "bike_stands": 30,
    "id": 21,
    "last_update": "2019-05-31T06:03:05Z",
    "latitude": 53.342178,
    "longitude": -6.254485,
    "name": "LEINSTER STREET SOUTH",
    "status": "open",
    "time": "2019-05-31T06:05:02Z"
  },
  {
    "address": "Townsend Street",
    "available_bike_stands": 19,
    "available_bikes": 1,
    "banking": "False",
    "bike_stands": 20,
    "id": 22,
    "last_update": "2019-05-31T06:01:39Z",
    "latitude": 53.345921,
    "longitude": -6.254614,
    "name": "TOWNSEND STREET",
    "status": "open",
    "time": "2019-05-31T06:05:02Z"
  },
  {
    "address": "Custom House",
    "available_bike_stands": 27,
    "available_bikes": 3,
    "banking": "True",
    "bike_stands": 30,
    "id": 23,
    "last_update": "2019-05-31T06:02:08Z",
    "latitude": 53.348278,
    "longitude": -6.254662,
    "name": "CUSTOM HOUSE",
    "status": "open",
    "time": "2019-05-31T06:05:02Z"
  },
  {
    "address": "Cathal Brugha Street",
    "available_bike_stands": 10,
    "available_bikes": 10,
    "banking": "False",
    "bike_stands": 20,
    "id": 24,
    "last_update": "2019-05-31T06:03:45Z",
    "latitude": 53.35215,
    "longitude": -6.260533,
    "name": "CATHAL BRUGHA STREET",
    "status": "open",
    "time": "2019-05-31T06:05:02Z"
  },
  {
    "address": "Merrion Square East",
    "available_bike_stands": 25,
    "available_bikes": 5,
    "banking": "False",
    "bike_stands": 30,
    "id": 25,
    "last_update": "2019-05-31T06:03:07Z",
    "latitude": 53.339436,
    "longitude": -6.246548,
    "name": "MERRION SQUARE EAST",
    "status": "open",
    "time": "2019-05-31T06:05:02Z"
  },
  {
    "address": "Merrion Square West",
    "available_bike_stands": 14,
    "available_bikes": 6,
    "banking": "True",
    "bike_stands": 20,
    "id": 26,
    "last_update": "2019-05-31T05:57:52Z",
    "latitude": 53.339764,
    "longitude": -6.251988,
    "name": "MERRION SQUARE WEST",
    "status": "open",
    "time": "2019-05-31T06:05:02Z"
  },
  {
    "address": "Molesworth Street",
    "available_bike_stands": 13,
    "available_bikes": 7,
    "banking": "False",
    "bike_stands": 20,
    "id": 27,
    "last_update": "2019-05-31T05:59:56Z",
    "latitude": 53.34129,
    "longitude": -6.258117,
    "name": "MOLESWORTH STREET",
    "status": "open",
    "time": "2019-05-31T06:05:02Z"
  },
  {
    "address": "Mountjoy Square West",
    "available_bike_stands": 22,
    "available_bikes": 8,
    "banking": "False",
    "bike_stands": 30,
    "id": 28,
    "last_update": "2019-05-31T05:59:32Z",
    "latitude": 53.3563,
    "longitude": -6.258586,
    "name": "MOUNTJOY SQUARE WEST",
    "status": "open",
    "time": "2019-05-31T06:05:02Z"
  },
  {
    "address": "Ormond Quay Upper",
    "available_bike_stands": 21,
    "available_bikes": 8,
    "banking": "True",
    "bike_stands": 29,
    "id": 29,
    "last_update": "2019-05-31T05:56:32Z",
    "latitude": 53.346058,
    "longitude": -6.268001,
    "name": "ORMOND QUAY UPPER",
    "status": "open",
    "time": "2019-05-31T06:05:02Z"
  },
  {
    "address": "Parnell Square North",
    "available_bike_stands": 14,
    "available_bikes": 6,
    "banking": "True",
    "bike_stands": 20,
    "id": 30,
    "last_update": "2019-05-31T06:02:03Z",
    "latitude": 53.353462,
    "longitude": -6.265305,
    "name": "PARNELL SQUARE NORTH",
    "status": "open",
    "time": "2019-05-31T06:05:02Z"
  },
  {
    "address": "Parnell Street",
    "available_bike_stands": 2,
    "available_bikes": 18,
    "banking": "False",
    "bike_stands": 20,
    "id": 31,
    "last_update": "2019-05-31T06:00:18Z",
    "latitude": 53.350929,
    "longitude": -6.265125,
    "name": "PARNELL STREET",
    "status": "open",
    "time": "2019-05-31T06:05:02Z"
  },
  {
    "address": "Pearse Street",
    "available_bike_stands": 30,
    "available_bikes": 0,
    "banking": "True",
    "bike_stands": 30,
    "id": 32,
    "last_update": "2019-05-31T05:58:29Z",
    "latitude": 53.344303,
    "longitude": -6.250427,
    "name": "PEARSE STREET",
    "status": "open",
    "time": "2019-05-31T06:05:02Z"
  },
  {
    "address": "Princes Street / O'Connell Street",
    "available_bike_stands": 23,
    "available_bikes": 0,
    "banking": "True",
    "bike_stands": 23,
    "id": 33,
    "last_update": "2019-05-31T06:02:12Z",
    "latitude": 53.349014,
    "longitude": -6.260311,
    "name": "PRINCES STREET / O'CONNELL STREET",
    "status": "open",
    "time": "2019-05-31T06:05:02Z"
  },
  {
    "address": "Portobello Harbour",
    "available_bike_stands": 16,
    "available_bikes": 14,
    "banking": "False",
    "bike_stands": 30,
    "id": 34,
    "last_update": "2019-05-31T06:03:57Z",
    "latitude": 53.33036,
    "longitude": -6.265163,
    "name": "PORTOBELLO HARBOUR",
    "status": "open",
    "time": "2019-05-31T06:05:02Z"
  },
  {
    "address": "Smithfield",
    "available_bike_stands": 0,
    "available_bikes": 0,
    "banking": "False",
    "bike_stands": 30,
    "id": 35,
    "last_update": "2019-05-31T06:02:20Z",
    "latitude": 53.347691,
    "longitude": -6.278214,
    "name": "SMITHFIELD",
    "status": "close",
    "time": "2019-05-31T06:05:02Z"
  },
  {
    "address": "St. Stephen's Green East",
    "available_bike_stands": 34,
    "available_bikes": 6,
    "banking": "True",
    "bike_stands": 40,
    "id": 36,
    "last_update": "2019-05-31T06:01:10Z",
    "latitude": 53.337826,
    "longitude": -6.256035,
    "name": "ST. STEPHEN'S GREEN EAST",
    "status": "open",
    "time": "2019-05-31T06:05:02Z"
  },
  {
    "address": "St. Stephen's Green South",
    "available_bike_stands": 30,
    "available_bikes": 0,
    "banking": "True",
    "bike_stands": 30,
    "id": 37,
    "last_update": "2019-05-31T05:58:44Z",
    "latitude": 53.337494,
    "longitude": -6.26199,
    "name": "ST. STEPHEN'S GREEN SOUTH",
    "status": "open",
    "time": "2019-05-31T06:05:02Z"
  },
  {
    "address": "Talbot Street",
    "available_bike_stands": 21,
    "available_bikes": 19,
    "banking": "False",
    "bike_stands": 40,
    "id": 38,
    "last_update": "2019-05-31T06:03:52Z",
    "latitude": 53.350975,
    "longitude": -6.25294,
    "name": "TALBOT STREET",
    "status": "open",
    "time": "2019-05-31T06:05:02Z"
  },
  {
    "address": "Wilton Terrace",
    "available_bike_stands": 18,
    "available_bikes": 2,
    "banking": "True",
    "bike_stands": 20,
    "id": 39,
    "last_update": "2019-05-31T06:01:43Z",
    "latitude": 53.332382,
    "longitude": -6.252717,
    "name": "WILTON TERRACE",
    "status": "open",
    "time": "2019-05-31T06:05:02Z"
  },
  {
    "address": "Jervis Street",
    "available_bike_stands": 9,
    "available_bikes": 12,
    "banking": "True",
    "bike_stands": 21,
    "id": 40,
    "last_update": "2019-05-31T06:01:57Z",
    "latitude": 53.348301,
    "longitude": -6.266651,
    "name": "JERVIS STREET",
    "status": "open",
    "time": "2019-05-31T06:05:02Z"
  },
  {
    "address": "Harcourt Terrace",
    "available_bike_stands": 18,
    "available_bikes": 2,
    "banking": "False",
    "bike_stands": 20,
    "id": 41,
    "last_update": "2019-05-31T06:00:21Z",
    "latitude": 53.332764,
    "longitude": -6.257942,
    "name": "HARCOURT TERRACE",
    "status": "open",
    "time": "2019-05-31T06:05:02Z"
  },
  {
    "address": "Smithfield North",
    "available_bike_stands": 22,
    "available_bikes": 8,
    "banking": "True",
    "bike_stands": 30,
    "id": 42,
    "last_update": "2019-05-31T06:03:50Z",
    "latitude": 53.349564,
    "longitude": -6.278198,
    "name": "SMITHFIELD NORTH",
    "status": "open",
    "time": "2019-05-31T06:05:02Z"
  },
  {
    "address": "Portobello Road",
    "available_bike_stands": 22,
    "available_bikes": 8,
    "banking": "True",
    "bike_stands": 30,
    "id": 43,
    "last_update": "2019-05-31T05:55:20Z",
    "latitude": 53.33009,
    "longitude": -6.268044,
    "name": "PORTOBELLO ROAD",
    "status": "open",
    "time": "2019-05-31T06:05:02Z"
  },
  {
    "address": "Upper Sherrard Street",
    "available_bike_stands": 19,
    "available_bikes": 11,
    "banking": "False",
    "bike_stands": 30,
    "id": 44,
    "last_update": "2019-05-31T06:02:33Z",
    "latitude": 53.358437,
    "longitude": -6.260641,
    "name": "UPPER SHERRARD STREET",
    "status": "open",
    "time": "2019-05-31T06:05:02Z"
  },
  {
    "address": "Deverell Place",
    "available_bike_stands": 10,
    "available_bikes": 20,
    "banking": "False",
    "bike_stands": 30,
    "id": 45,
    "last_update": "2019-05-31T06:03:21Z",
    "latitude": 53.351463,
    "longitude": -6.255265,
    "name": "DEVERELL PLACE",
    "status": "open",
    "time": "2019-05-31T06:05:02Z"
  },
  {
    "address": "Strand Street Great",
    "available_bike_stands": 6,
    "available_bikes": 0,
    "banking": "True",
    "bike_stands": 20,
    "id": 46,
    "last_update": "2019-05-29T10:09:58Z",
    "latitude": 53.34708,
    "longitude": -6.264192,
    "name": "STRAND STREET GREAT",
    "status": "close",
    "time": "2019-05-31T06:05:02Z"
  },
  {
    "address": "Herbert Street",
    "available_bike_stands": 38,
    "available_bikes": 2,
    "banking": "False",
    "bike_stands": 40,
    "id": 47,
    "last_update": "2019-05-31T06:03:33Z",
    "latitude": 53.335743,
    "longitude": -6.24551,
    "name": "HERBERT STREET",
    "status": "open",
    "time": "2019-05-31T06:05:02Z"
  },
  {
    "address": "Excise Walk",
    "available_bike_stands": 36,
    "available_bikes": 4,
    "banking": "False",
    "bike_stands": 40,
    "id": 48,
    "last_update": "2019-05-31T06:03:02Z",
    "latitude": 53.347778,
    "longitude": -6.244239,
    "name": "EXCISE WALK",
    "status": "open",
    "time": "2019-05-31T06:05:02Z"
  },
  {
    "address": "Guild Street",
    "available_bike_stands": 32,
    "available_bikes": 8,
    "banking": "False",
    "bike_stands": 40,
    "id": 49,
    "last_update": "2019-05-31T06:00:55Z",
    "latitude": 53.347931,
    "longitude": -6.240928,
    "name": "GUILD STREET",
    "status": "open",
    "time": "2019-05-31T06:05:02Z"
  },
  {
    "address": "George's Lane",
    "available_bike_stands": 10,
    "available_bikes": 30,
    "banking": "False",
    "bike_stands": 40,
    "id": 50,
    "last_update": "2019-05-31T06:03:45Z",
    "latitude": 53.350231,
    "longitude": -6.279696,
    "name": "GEORGES LANE",
    "status": "open",
    "time": "2019-05-31T06:05:02Z"
  },
  {
    "address": "York Street West",
    "available_bike_stands": 37,
    "available_bikes": 3,
    "banking": "False",
    "bike_stands": 40,
    "id": 51,
    "last_update": "2019-05-31T06:02:18Z",
    "latitude": 53.339333,
    "longitude": -6.264699,
    "name": "YORK STREET WEST",
    "status": "open",
    "time": "2019-05-31T06:05:02Z"
  },
  {
    "address": "York Street East",
    "available_bike_stands": 24,
    "available_bikes": 8,
    "banking": "False",
    "bike_stands": 32,
    "id": 52,
    "last_update": "2019-05-31T06:03:31Z",
    "latitude": 53.338757,
    "longitude": -6.262003,
    "name": "YORK STREET EAST",
    "status": "open",
    "time": "2019-05-31T06:05:02Z"
  },
  {
    "address": "Newman House",
    "available_bike_stands": 38,
    "available_bikes": 2,
    "banking": "False",
    "bike_stands": 40,
    "id": 53,
    "last_update": "2019-05-31T05:59:27Z",
    "latitude": 53.337132,
    "longitude": -6.26059,
    "name": "NEWMAN HOUSE",
    "status": "open",
    "time": "2019-05-31T06:05:02Z"
  },
  {
    "address": "Clonmel Street",
    "available_bike_stands": 31,
    "available_bikes": 2,
    "banking": "False",
    "bike_stands": 33,
    "id": 54,
    "last_update": "2019-05-31T05:59:19Z",
    "latitude": 53.336021,
    "longitude": -6.26298,
    "name": "CLONMEL STREET",
    "status": "open",
    "time": "2019-05-31T06:05:02Z"
  },
  {
    "address": "Hatch Street",
    "available_bike_stands": 30,
    "available_bikes": 6,
    "banking": "False",
    "bike_stands": 36,
    "id": 55,
    "last_update": "2019-05-31T06:01:30Z",
    "latitude": 53.33403,
    "longitude": -6.260714,
    "name": "HATCH STREET",
    "status": "open",
    "time": "2019-05-31T06:05:02Z"
  },
  {
    "address": "Mount Street Lower",
    "available_bike_stands": 36,
    "available_bikes": 4,
    "banking": "False",
    "bike_stands": 40,
    "id": 56,
    "last_update": "2019-05-31T06:03:58Z",
    "latitude": 53.337959,
    "longitude": -6.24153,
    "name": "MOUNT STREET LOWER",
    "status": "open",
    "time": "2019-05-31T06:05:02Z"
  },
  {
    "address": "Grattan Street",
    "available_bike_stands": 23,
    "available_bikes": 0,
    "banking": "False",
    "bike_stands": 23,
    "id": 57,
    "last_update": "2019-05-31T05:58:00Z",
    "latitude": 53.33963,
    "longitude": -6.243778,
    "name": "GRATTAN STREET",
    "status": "open",
    "time": "2019-05-31T06:05:02Z"
  },
  {
    "address": "Sir Patrick's Dun",
    "available_bike_stands": 37,
    "available_bikes": 3,
    "banking": "True",
    "bike_stands": 40,
    "id": 58,
    "last_update": "2019-05-31T06:01:30Z",
    "latitude": 53.339218,
    "longitude": -6.240642,
    "name": "SIR PATRICK DUN'S",
    "status": "open",
    "time": "2019-05-31T06:05:02Z"
  },
  {
    "address": "Denmark Street Great",
    "available_bike_stands": 19,
    "available_bikes": 1,
    "banking": "False",
    "bike_stands": 20,
    "id": 59,
    "last_update": "2019-05-31T05:55:32Z",
    "latitude": 53.35561,
    "longitude": -6.261397,
    "name": "DENMARK STREET GREAT",
    "status": "open",
    "time": "2019-05-31T06:05:02Z"
  },
  {
    "address": "North Circular Road",
    "available_bike_stands": 16,
    "available_bikes": 14,
    "banking": "False",
    "bike_stands": 30,
    "id": 60,
    "last_update": "2019-05-31T06:01:46Z",
    "latitude": 53.359623,
    "longitude": -6.260348,
    "name": "NORTH CIRCULAR ROAD",
    "status": "open",
    "time": "2019-05-31T06:05:02Z"
  },
  {
    "address": "Hardwicke Place",
    "available_bike_stands": 12,
    "available_bikes": 13,
    "banking": "True",
    "bike_stands": 25,
    "id": 61,
    "last_update": "2019-05-31T05:56:20Z",
    "latitude": 53.357044,
    "longitude": -6.263232,
    "name": "HARDWICKE PLACE",
    "status": "open",
    "time": "2019-05-31T06:05:02Z"
  },
  {
    "address": "Lime Street",
    "available_bike_stands": 30,
    "available_bikes": 10,
    "banking": "False",
    "bike_stands": 40,
    "id": 62,
    "last_update": "2019-05-31T06:03:00Z",
    "latitude": 53.346027,
    "longitude": -6.243576,
    "name": "LIME STREET",
    "status": "open",
    "time": "2019-05-31T06:05:02Z"
  },
  {
    "address": "Fenian Street",
    "available_bike_stands": 32,
    "available_bikes": 3,
    "banking": "False",
    "bike_stands": 35,
    "id": 63,
    "last_update": "2019-05-31T05:54:45Z",
    "latitude": 53.341427,
    "longitude": -6.24672,
    "name": "FENIAN STREET",
    "status": "open",
    "time": "2019-05-31T06:05:02Z"
  },
  {
    "address": "Sandwith Street",
    "available_bike_stands": 39,
    "available_bikes": 1,
    "banking": "True",
    "bike_stands": 40,
    "id": 64,
    "last_update": "2019-05-31T05:59:38Z",
    "latitude": 53.345203,
    "longitude": -6.247163,
    "name": "SANDWITH STREET",
    "status": "open",
    "time": "2019-05-31T06:05:02Z"
  },
  {
    "address": "Convention Centre",
    "available_bike_stands": 40,
    "available_bikes": 0,
    "banking": "True",
    "bike_stands": 40,
    "id": 65,
    "last_update": "2019-05-31T05:59:23Z",
    "latitude": 53.347439,
    "longitude": -6.238523,
    "name": "CONVENTION CENTRE",
    "status": "open",
    "time": "2019-05-31T06:05:02Z"
  },
  {
    "address": "New Central Bank",
    "available_bike_stands": 31,
    "available_bikes": 9,
    "banking": "False",
    "bike_stands": 40,
    "id": 66,
    "last_update": "2019-05-31T06:02:39Z",
    "latitude": 53.347122,
    "longitude": -6.234749,
    "name": "NEW CENTRAL BANK",
    "status": "open",
    "time": "2019-05-31T06:05:02Z"
  },
  {
    "address": "The Point",
    "available_bike_stands": 34,
    "available_bikes": 6,
    "banking": "False",
    "bike_stands": 40,
    "id": 67,
    "last_update": "2019-05-31T06:00:05Z",
    "latitude": 53.346867,
    "longitude": -6.230852,
    "name": "THE POINT",
    "status": "open",
    "time": "2019-05-31T06:05:02Z"
  },
  {
    "address": "Hanover Quay",
    "available_bike_stands": 26,
    "available_bikes": 14,
    "banking": "True",
    "bike_stands": 40,
    "id": 68,
    "last_update": "2019-05-31T06:03:18Z",
    "latitude": 53.344116,
    "longitude": -6.237153,
    "name": "HANOVER QUAY",
    "status": "open",
    "time": "2019-05-31T06:05:02Z"
  },
  {
    "address": "Grand Canal Dock",
    "available_bike_stands": 18,
    "available_bikes": 22,
    "banking": "False",
    "bike_stands": 40,
    "id": 69,
    "last_update": "2019-05-31T06:03:34Z",
    "latitude": 53.342636,
    "longitude": -6.238695,
    "name": "GRAND CANAL DOCK",
    "status": "open",
    "time": "2019-05-31T06:05:02Z"
  },
  {
    "address": "Barrow Street",
    "available_bike_stands": 5,
    "available_bikes": 23,
    "banking": "True",
    "bike_stands": 28,
    "id": 70,
    "last_update": "2019-05-31T06:00:55Z",
    "latitude": 53.341656,
    "longitude": -6.236198,
    "name": "BARROW STREET",
    "status": "open",
    "time": "2019-05-31T06:05:02Z"
  },
  {
    "address": "Kevin Street",
    "available_bike_stands": 38,
    "available_bikes": 2,
    "banking": "True",
    "bike_stands": 40,
    "id": 71,
    "last_update": "2019-05-31T06:01:28Z",
    "latitude": 53.337757,
    "longitude": -6.267699,
    "name": "KEVIN STREET",
    "status": "open",
    "time": "2019-05-31T06:05:02Z"
  },
  {
    "address": "John Street West",
    "available_bike_stands": 20,
    "available_bikes": 11,
    "banking": "False",
    "bike_stands": 31,
    "id": 72,
    "last_update": "2019-05-31T05:59:24Z",
    "latitude": 53.343105,
    "longitude": -6.277167,
    "name": "JOHN STREET WEST",
    "status": "open",
    "time": "2019-05-31T06:05:02Z"
  },
  {
    "address": "Francis Street",
    "available_bike_stands": 11,
    "available_bikes": 19,
    "banking": "False",
    "bike_stands": 30,
    "id": 73,
    "last_update": "2019-05-31T06:03:02Z",
    "latitude": 53.342079,
    "longitude": -6.275233,
    "name": "FRANCIS STREET",
    "status": "open",
    "time": "2019-05-31T06:05:02Z"
  },
  {
    "address": "Oliver Bond Street",
    "available_bike_stands": 14,
    "available_bikes": 16,
    "banking": "False",
    "bike_stands": 30,
    "id": 74,
    "last_update": "2019-05-31T05:55:29Z",
    "latitude": 53.343891,
    "longitude": -6.280531,
    "name": "OLIVER BOND STREET",
    "status": "open",
    "time": "2019-05-31T06:05:02Z"
  },
  {
    "address": "James Street",
    "available_bike_stands": 13,
    "available_bikes": 27,
    "banking": "True",
    "bike_stands": 40,
    "id": 75,
    "last_update": "2019-05-31T06:00:10Z",
    "latitude": 53.343456,
    "longitude": -6.287409,
    "name": "JAMES STREET",
    "status": "open",
    "time": "2019-05-31T06:05:02Z"
  },
  {
    "address": "Market Street South",
    "available_bike_stands": 31,
    "available_bikes": 7,
    "banking": "False",
    "bike_stands": 38,
    "id": 76,
    "last_update": "2019-05-31T06:02:34Z",
    "latitude": 53.342297,
    "longitude": -6.287661,
    "name": "MARKET STREET SOUTH",
    "status": "open",
    "time": "2019-05-31T06:05:02Z"
  },
  {
    "address": "Wolfe Tone Street",
    "available_bike_stands": 26,
    "available_bikes": 3,
    "banking": "False",
    "bike_stands": 29,
    "id": 77,
    "last_update": "2019-05-31T06:00:53Z",
    "latitude": 53.348873,
    "longitude": -6.267459,
    "name": "WOLFE TONE STREET",
    "status": "open",
    "time": "2019-05-31T06:05:02Z"
  },
  {
    "address": "Mater Hospital",
    "available_bike_stands": 6,
    "available_bikes": 34,
    "banking": "False",
    "bike_stands": 40,
    "id": 78,
    "last_update": "2019-05-31T06:03:28Z",
    "latitude": 53.359966,
    "longitude": -6.264828,
    "name": "MATER HOSPITAL",
    "status": "open",
    "time": "2019-05-31T06:05:02Z"
  },
  {
    "address": "Eccles Street East",
    "available_bike_stands": 7,
    "available_bikes": 20,
    "banking": "False",
    "bike_stands": 27,
    "id": 79,
    "last_update": "2019-05-31T06:03:42Z",
    "latitude": 53.358116,
    "longitude": -6.265601,
    "name": "ECCLES STREET EAST",
    "status": "open",
    "time": "2019-05-31T06:05:02Z"
  },
  {
    "address": "St James Hospital (Luas)",
    "available_bike_stands": 16,
    "available_bikes": 24,
    "banking": "False",
    "bike_stands": 40,
    "id": 80,
    "last_update": "2019-05-31T06:03:45Z",
    "latitude": 53.341358,
    "longitude": -6.292951,
    "name": "ST JAMES HOSPITAL (LUAS)",
    "status": "open",
    "time": "2019-05-31T06:05:02Z"
  },
  {
    "address": "St. James Hospital (Central)",
    "available_bike_stands": 38,
    "available_bikes": 2,
    "banking": "False",
    "bike_stands": 40,
    "id": 81,
    "last_update": "2019-05-31T06:02:16Z",
    "latitude": 53.339985,
    "longitude": -6.295594,
    "name": "ST. JAMES HOSPITAL (CENTRAL)",
    "status": "open",
    "time": "2019-05-31T06:05:02Z"
  },
  {
    "address": "Mount Brown",
    "available_bike_stands": 6,
    "available_bikes": 16,
    "banking": "False",
    "bike_stands": 22,
    "id": 82,
    "last_update": "2019-05-31T06:02:14Z",
    "latitude": 53.341644,
    "longitude": -6.29719,
    "name": "MOUNT BROWN",
    "status": "open",
    "time": "2019-05-31T06:05:02Z"
  },
  {
    "address": "Emmet Road",
    "available_bike_stands": 8,
    "available_bikes": 32,
    "banking": "False",
    "bike_stands": 40,
    "id": 83,
    "last_update": "2019-05-31T05:57:15Z",
    "latitude": 53.340714,
    "longitude": -6.308191,
    "name": "EMMET ROAD",
    "status": "open",
    "time": "2019-05-31T06:05:02Z"
  },
  {
    "address": "Brookfield Road",
    "available_bike_stands": 4,
    "available_bikes": 26,
    "banking": "False",
    "bike_stands": 30,
    "id": 84,
    "last_update": "2019-05-31T05:56:45Z",
    "latitude": 53.339005,
    "longitude": -6.300217,
    "name": "BROOKFIELD ROAD",
    "status": "open",
    "time": "2019-05-31T06:05:02Z"
  },
  {
    "address": "Rothe Abbey",
    "available_bike_stands": 14,
    "available_bikes": 21,
    "banking": "True",
    "bike_stands": 35,
    "id": 85,
    "last_update": "2019-05-31T05:59:05Z",
    "latitude": 53.338776,
    "longitude": -6.30395,
    "name": "ROTHE ABBEY",
    "status": "open",
    "time": "2019-05-31T06:05:02Z"
  },
  {
    "address": "Parkgate Street",
    "available_bike_stands": 9,
    "available_bikes": 29,
    "banking": "True",
    "bike_stands": 38,
    "id": 86,
    "last_update": "2019-05-31T05:59:42Z",
    "latitude": 53.347973,
    "longitude": -6.291804,
    "name": "PARKGATE STREET",
    "status": "open",
    "time": "2019-05-31T06:05:02Z"
  },
  {
    "address": "Collins Barracks Museum",
    "available_bike_stands": 3,
    "available_bikes": 35,
    "banking": "True",
    "bike_stands": 38,
    "id": 87,
    "last_update": "2019-05-31T06:02:12Z",
    "latitude": 53.347477,
    "longitude": -6.28525,
    "name": "COLLINS BARRACKS MUSEUM",
    "status": "open",
    "time": "2019-05-31T06:05:02Z"
  },
  {
    "address": "Blackhall Place",
    "available_bike_stands": 7,
    "available_bikes": 23,
    "banking": "False",
    "bike_stands": 30,
    "id": 88,
    "last_update": "2019-05-31T06:03:21Z",
    "latitude": 53.348801,
    "longitude": -6.281637,
    "name": "BLACKHALL PLACE",
    "status": "open",
    "time": "2019-05-31T06:05:02Z"
  },
  {
    "address": "Fitzwilliam Square East",
    "available_bike_stands": 39,
    "available_bikes": 1,
    "banking": "True",
    "bike_stands": 40,
    "id": 89,
    "last_update": "2019-05-31T05:59:57Z",
    "latitude": 53.335213,
    "longitude": -6.2509,
    "name": "FITZWILLIAM SQUARE EAST",
    "status": "open",
    "time": "2019-05-31T06:05:02Z"
  },
  {
    "address": "Benson Street",
    "available_bike_stands": 25,
    "available_bikes": 15,
    "banking": "False",
    "bike_stands": 40,
    "id": 90,
    "last_update": "2019-05-31T06:02:45Z",
    "latitude": 53.344154,
    "longitude": -6.233451,
    "name": "BENSON STREET",
    "status": "open",
    "time": "2019-05-31T06:05:02Z"
  },
  {
    "address": "South Dock Road",
    "available_bike_stands": 30,
    "available_bikes": 0,
    "banking": "False",
    "bike_stands": 30,
    "id": 91,
    "last_update": "2019-05-31T06:01:23Z",
    "latitude": 53.341831,
    "longitude": -6.231291,
    "name": "SOUTH DOCK ROAD",
    "status": "open",
    "time": "2019-05-31T06:05:02Z"
  },
  {
    "address": "Heuston Bridge (North)",
    "available_bike_stands": 5,
    "available_bikes": 35,
    "banking": "False",
    "bike_stands": 40,
    "id": 92,
    "last_update": "2019-05-31T05:56:30Z",
    "latitude": 53.347801,
    "longitude": -6.292432,
    "name": "HEUSTON BRIDGE (NORTH)",
    "status": "open",
    "time": "2019-05-31T06:05:02Z"
  },
  {
    "address": "Heuston Station (Central)",
    "available_bike_stands": 6,
    "available_bikes": 34,
    "banking": "False",
    "bike_stands": 40,
    "id": 93,
    "last_update": "2019-05-31T06:02:41Z",
    "latitude": 53.346603,
    "longitude": -6.296924,
    "name": "HEUSTON STATION (CENTRAL)",
    "status": "open",
    "time": "2019-05-31T06:05:02Z"
  },
  {
    "address": "Heuston Station (Car Park)",
    "available_bike_stands": 1,
    "available_bikes": 39,
    "banking": "False",
    "bike_stands": 40,
    "id": 94,
    "last_update": "2019-05-31T05:56:57Z",
    "latitude": 53.346985,
    "longitude": -6.297804,
    "name": "HEUSTON STATION (CAR PARK)",
    "status": "open",
    "time": "2019-05-31T06:05:02Z"
  },
  {
    "address": "Royal Hospital",
    "available_bike_stands": 6,
    "available_bikes": 34,
    "banking": "True",
    "bike_stands": 40,
    "id": 95,
    "last_update": "2019-05-31T05:56:32Z",
    "latitude": 53.343899,
    "longitude": -6.29706,
    "name": "ROYAL HOSPITAL",
    "status": "open",
    "time": "2019-05-31T06:05:02Z"
  },
  {
    "address": "Kilmainham Lane",
    "available_bike_stands": 16,
    "available_bikes": 14,
    "banking": "False",
    "bike_stands": 30,
    "id": 96,
    "last_update": "2019-05-31T06:03:42Z",
    "latitude": 53.341805,
    "longitude": -6.305085,
    "name": "KILMAINHAM LANE",
    "status": "open",
    "time": "2019-05-31T06:05:02Z"
  },
  {
    "address": "Kilmainham Gaol",
    "available_bike_stands": 16,
    "available_bikes": 24,
    "banking": "True",
    "bike_stands": 40,
    "id": 97,
    "last_update": "2019-05-31T06:03:56Z",
    "latitude": 53.342113,
    "longitude": -6.310015,
    "name": "KILMAINHAM GAOL",
    "status": "open",
    "time": "2019-05-31T06:05:02Z"
  },
  {
    "address": "Frederick Street South",
    "available_bike_stands": 40,
    "available_bikes": 0,
    "banking": "True",
    "bike_stands": 40,
    "id": 98,
    "last_update": "2019-05-31T06:01:25Z",
    "latitude": 53.341515,
    "longitude": -6.256853,
    "name": "FREDERICK STREET SOUTH",
    "status": "open",
    "time": "2019-05-31T06:05:02Z"
  },
  {
    "address": "City Quay",
    "available_bike_stands": 27,
    "available_bikes": 3,
    "banking": "False",
    "bike_stands": 30,
    "id": 99,
    "last_update": "2019-05-31T05:59:01Z",
    "latitude": 53.346638,
    "longitude": -6.246154,
    "name": "CITY QUAY",
    "status": "open",
    "time": "2019-05-31T06:05:02Z"
  },
  {
    "address": "Heuston Bridge (South)",
    "available_bike_stands": 9,
    "available_bikes": 16,
    "banking": "False",
    "bike_stands": 25,
    "id": 100,
    "last_update": "2019-05-31T06:03:32Z",
    "latitude": 53.347107,
    "longitude": -6.292041,
    "name": "HEUSTON BRIDGE (SOUTH)",
    "status": "open",
    "time": "2019-05-31T06:05:02Z"
  },
  {
    "address": "King Street North",
    "available_bike_stands": 6,
    "available_bikes": 24,
    "banking": "False",
    "bike_stands": 30,
    "id": 101,
    "last_update": "2019-05-31T06:00:03Z",
    "latitude": 53.350292,
    "longitude": -6.273507,
    "name": "KING STREET NORTH",
    "status": "open",
    "time": "2019-05-31T06:05:02Z"
  },
  {
    "address": "Western Way",
    "available_bike_stands": 12,
    "available_bikes": 28,
    "banking": "False",
    "bike_stands": 40,
    "id": 102,
    "last_update": "2019-05-31T05:57:23Z",
    "latitude": 53.354931,
    "longitude": -6.269425,
    "name": "WESTERN WAY",
    "status": "open",
    "time": "2019-05-31T06:05:02Z"
  },
  {
    "address": "Grangegorman Lower (South)",
    "available_bike_stands": 35,
    "available_bikes": 5,
    "banking": "False",
    "bike_stands": 40,
    "id": 103,
    "last_update": "2019-05-31T05:59:53Z",
    "latitude": 53.354664,
    "longitude": -6.278681,
    "name": "GRANGEGORMAN LOWER (SOUTH)",
    "status": "open",
    "time": "2019-05-31T06:05:02Z"
  },
  {
    "address": "Grangegorman Lower (Central)",
    "available_bike_stands": 33,
    "available_bikes": 7,
    "banking": "True",
    "bike_stands": 40,
    "id": 104,
    "last_update": "2019-05-31T06:01:01Z",
    "latitude": 53.355171,
    "longitude": -6.278424,
    "name": "GRANGEGORMAN LOWER (CENTRAL)",
    "status": "open",
    "time": "2019-05-31T06:05:02Z"
  },
  {
    "address": "Grangegorman Lower (North)",
    "available_bike_stands": 30,
    "available_bikes": 6,
    "banking": "False",
    "bike_stands": 36,
    "id": 105,
    "last_update": "2019-05-31T05:58:37Z",
    "latitude": 53.355953,
    "longitude": -6.278378,
    "name": "GRANGEGORMAN LOWER (NORTH)",
    "status": "open",
    "time": "2019-05-31T06:05:02Z"
  },
  {
    "address": "Rathdown Road",
    "available_bike_stands": 25,
    "available_bikes": 15,
    "banking": "False",
    "bike_stands": 40,
    "id": 106,
    "last_update": "2019-05-31T05:54:57Z",
    "latitude": 53.358929,
    "longitude": -6.280337,
    "name": "RATHDOWN ROAD",
    "status": "open",
    "time": "2019-05-31T06:05:02Z"
  },
  {
    "address": "Charleville Road",
    "available_bike_stands": 32,
    "available_bikes": 8,
    "banking": "True",
    "bike_stands": 40,
    "id": 107,
    "last_update": "2019-05-31T05:59:21Z",
    "latitude": 53.359158,
    "longitude": -6.281866,
    "name": "CHARLEVILLE ROAD",
    "status": "open",
    "time": "2019-05-31T06:05:02Z"
  },
  {
    "address": "Avondale Road",
    "available_bike_stands": 23,
    "available_bikes": 17,
    "banking": "False",
    "bike_stands": 40,
    "id": 108,
    "last_update": "2019-05-31T05:59:52Z",
    "latitude": 53.359406,
    "longitude": -6.276142,
    "name": "AVONDALE ROAD",
    "status": "open",
    "time": "2019-05-31T06:05:02Z"
  },
  {
    "address": "Buckingham Street Lower",
    "available_bike_stands": 8,
    "available_bikes": 21,
    "banking": "False",
    "bike_stands": 29,
    "id": 109,
    "last_update": "2019-05-31T06:00:25Z",
    "latitude": 53.353333,
    "longitude": -6.249319,
    "name": "BUCKINGHAM STREET LOWER",
    "status": "open",
    "time": "2019-05-31T06:05:02Z"
  },
  {
    "address": "Phibsborough Road",
    "available_bike_stands": 10,
    "available_bikes": 30,
    "banking": "False",
    "bike_stands": 40,
    "id": 110,
    "last_update": "2019-05-31T05:56:16Z",
    "latitude": 53.356308,
    "longitude": -6.273717,
    "name": "PHIBSBOROUGH ROAD",
    "status": "open",
    "time": "2019-05-31T06:05:02Z"
  },
  {
    "address": "Mountjoy Square East",
    "available_bike_stands": 17,
    "available_bikes": 23,
    "banking": "True",
    "bike_stands": 40,
    "id": 111,
    "last_update": "2019-05-31T06:02:34Z",
    "latitude": 53.356716,
    "longitude": -6.256359,
    "name": "MOUNTJOY SQUARE EAST",
    "status": "open",
    "time": "2019-05-31T06:05:02Z"
  },
  {
    "address": "North Circular Road (O'Connell's)",
    "available_bike_stands": 23,
    "available_bikes": 7,
    "banking": "False",
    "bike_stands": 30,
    "id": 112,
    "last_update": "2019-05-31T06:02:09Z",
    "latitude": 53.357841,
    "longitude": -6.251557,
    "name": "NORTH CIRCULAR ROAD (O'CONNELL'S)",
    "status": "open",
    "time": "2019-05-31T06:05:02Z"
  },
  {
    "address": "Merrion Square South",
    "available_bike_stands": 36,
    "available_bikes": 4,
    "banking": "True",
    "bike_stands": 40,
    "id": 113,
    "last_update": "2019-05-31T05:55:39Z",
    "latitude": 53.338615,
    "longitude": -6.248606,
    "name": "MERRION SQUARE SOUTH",
    "status": "open",
    "time": "2019-05-31T06:05:02Z"
  },
  {
    "address": "Wilton Terrace (Park)",
    "available_bike_stands": 34,
    "available_bikes": 6,
    "banking": "True",
    "bike_stands": 40,
    "id": 114,
    "last_update": "2019-05-31T05:57:54Z",
    "latitude": 53.333652,
    "longitude": -6.248345,
    "name": "WILTON TERRACE (PARK)",
    "status": "open",
    "time": "2019-05-31T06:05:02Z"
  },
  {
    "address": "Killarney Street",
    "available_bike_stands": 4,
    "available_bikes": 26,
    "banking": "False",
    "bike_stands": 30,
    "id": 115,
    "last_update": "2019-05-31T06:03:27Z",
    "latitude": 53.354843,
    "longitude": -6.247579,
    "name": "KILLARNEY STREET",
    "status": "open",
    "time": "2019-05-31T06:05:02Z"
  }
]